City_ID,City,Lat,Lng,Max Temp,Humidity,Cloudiness,Wind Speed,Country,Date
0,waitangi,-43.9535,-176.5597,11.01,69,9,1.34,NZ,1715128297
1,bethel,41.3712,-73.414,19.05,51,0,1.54,US,1715128284
2,port-aux-francais,-49.35,70.2167,4.63,78,37,14.48,TF,1715128287
3,mil'kovo,55.6078,37.7956,1.3,73,2,4.72,RU,1715128607
4,jumla,29.2747,82.1838,10.48,76,100,0.82,NP,1715128607
5,margaret river,-33.95,115.0667,17.95,56,41,5.41,AU,1715128305
6,chui,-33.6971,-53.4616,19.96,98,100,4.99,UY,1715128607
7,kodiak,57.79,-152.4072,5.73,87,100,3.09,US,1715128382
8,invercargill,-46.4,168.35,6.12,95,100,7.6,NZ,1715128244
9,ushuaia,-54.8,-68.3,0.81,80,0,3.09,AR,1715128296
10,kavaratti,10.5669,72.642,30.31,67,75,5.41,IN,1715128608
11,malango,-2.9627,119.9001,25.09,80,25,0.97,ID,1715128608
12,dongcun,36.7767,121.1597,20.25,34,0,3.25,CN,1715128608
13,hasaki,35.7333,140.8333,20.22,79,100,6.16,JP,1715128553
14,hovd,48.0056,91.6419,13.57,46,100,0.6,MN,1715128344
15,mabai,23.0128,104.4508,18.38,87,100,1.1,CN,1715128609
16,dhone,15.4167,77.8833,27.26,65,98,5.65,IN,1715128609
17,albany,42.6001,-73.9662,20.23,48,99,2.16,US,1715128211
18,safford,32.834,-109.7076,29.51,7,0,9.77,US,1715128609
19,port mathurin,-19.6833,63.4167,25.48,64,68,11.11,MU,1715128314
20,jobner,26.9667,75.3833,29.68,36,5,5.86,IN,1715128610
21,edinburgh of the seven seas,-37.0676,-12.3116,16.16,90,100,20.18,SH,1715128286
22,ust-nera,64.5667,143.2,3.36,76,100,2.47,RU,1715128310
23,iqaluit,63.7506,-68.5145,-2.15,74,20,4.63,CA,1715128297
24,nar'yan-mar,67.6713,53.087,-9.34,97,98,4.33,RU,1715128285
25,zhangjiakou,40.81,114.8794,18.49,36,7,0.63,CN,1715128563
26,yellowknife,62.456,-114.3525,11.9,76,100,5.66,CA,1715128313
27,shasta lake,40.6804,-122.3708,23.4,22,4,2.96,US,1715128564
28,port elizabeth,-33.918,25.5701,20.05,91,20,11.32,ZA,1715128300
29,weno,7.4515,151.8468,25.97,94,100,3.6,FM,1715128380
30,lompoc,34.6391,-120.4579,22.1,62,0,8.75,US,1715128246
31,malvan,16.0667,73.4667,25.89,87,3,3.54,IN,1715128612
32,calama,-22.4667,-68.9333,16.27,18,0,2.57,CL,1715128421
33,kingman,35.1894,-114.053,28.99,5,0,5.14,US,1715128419
34,kavieng,-2.5744,150.7967,28.14,82,100,6.64,PG,1715128400
35,puerto ayora,-0.7393,-90.3518,24.19,97,100,2.75,EC,1715128292
36,kikwit,-5.041,18.8162,23.74,59,19,1.2,CD,1715128612
37,brooks,50.5834,-111.8851,4.99,88,100,15.43,CA,1715128441
38,avarua,-21.2078,-159.775,28.03,94,75,3.6,CK,1715128315
39,arraial do cabo,-22.9661,-42.0278,25.92,73,0,7.72,BR,1715128331
40,ribeira grande,38.5167,-28.7,17.65,93,27,4.02,PT,1715128295
41,moree,-29.4667,149.85,21.62,39,7,3.5,AU,1715128614
42,hadibu,12.65,54.0333,28.54,78,0,0.84,YE,1715128347
43,ouallam,14.3188,2.0866,29.46,50,26,6.26,NE,1715128614
44,chatra,24.2167,84.8667,26.1,49,0,0.62,IN,1715128615
45,paphos,34.7667,32.4167,14.88,67,20,4.12,CY,1715128615
46,constantia,44.1833,28.65,15.39,89,100,3.18,RO,1715128389
47,dolores,-36.3132,-57.6792,16.5,98,100,0.67,AR,1715128575
48,makhambet,47.6667,51.5833,12.9,91,100,8.33,KZ,1715128615
49,atafu village,-8.5421,-172.5159,28.87,78,100,4.17,TK,1715128319
50,belyy yar,53.6039,91.3903,7.94,66,0,2.0,RU,1715128616
51,cabo san lucas,22.8909,-109.9124,29.23,34,75,5.66,MX,1715128202
52,badger,64.8,-147.5333,11.11,48,100,2.06,US,1715128346
53,longyearbyen,78.2186,15.6401,1.91,69,75,4.63,SJ,1715128301
54,anna regina,7.2644,-58.5077,27.04,83,100,4.24,GY,1715128616
55,tiksi,71.6872,128.8694,-0.99,96,100,3.56,RU,1715128284
56,kerikeri,-35.2268,173.9474,16.99,50,4,3.35,NZ,1715128520
57,tianpeng,30.9866,103.9393,19.26,64,100,4.72,CN,1715128617
58,port augusta,-32.5,137.7667,21.19,36,94,4.04,AU,1715128617
59,grytviken,-54.2811,-36.5092,-1.99,78,23,3.89,GS,1715128289
60,greenville,35.6127,-77.3663,24.97,82,0,0.0,US,1715128335
61,bredasdorp,-34.5322,20.0403,14.44,88,14,1.43,ZA,1715128288
62,pisco,-13.7,-76.2167,20.03,83,100,9.77,PE,1715128333
63,stanley,54.868,-1.6985,8.07,96,100,1.54,GB,1715128321
64,talnakh,69.4865,88.3972,-14.89,93,41,2.6,RU,1715128316
65,kismayo,-0.3582,42.5454,25.68,88,100,3.67,SO,1715128618
66,bilibino,68.0546,166.4372,-0.12,82,100,1.02,RU,1715128289
67,olonkinbyen,70.9221,-8.7187,0.19,95,96,7.72,SJ,1715128302
68,adamstown,-25.066,-130.1015,21.91,79,90,4.52,PN,1715128289
69,caleta de carquin,-11.0925,-77.6267,19.16,91,72,5.39,PE,1715128395
70,whitehorse,60.7161,-135.0538,10.57,39,75,6.71,CA,1715128299
71,punta arenas,-53.15,-70.9167,3.06,87,75,4.63,CL,1715128342
72,baie-comeau,49.2168,-68.1489,7.82,53,20,2.57,CA,1715128619
73,crane,31.3974,-102.3501,31.16,13,5,4.04,US,1715128301
74,georgetown,5.4112,100.3354,27.96,84,20,1.54,MY,1715128290
75,chibougamau,49.9168,-74.3659,4.79,75,75,1.54,CA,1715128620
76,vallegrande,-18.4897,-64.1069,15.94,97,99,3.06,BO,1715128620
77,launceston,-41.45,147.1667,15.74,76,100,5.66,AU,1715128620
78,la ronge,55.1001,-105.2842,17.14,34,75,5.14,CA,1715128389
79,catriel,-37.8791,-67.7956,11.59,29,100,8.86,AR,1715128621
80,sisimiut,66.9395,-53.6735,-4.18,83,100,2.15,GL,1715128521
81,midland,31.9974,-102.0779,33.37,7,0,10.8,US,1715128302
82,hithadhoo,-0.6,73.0833,28.97,78,59,4.99,MV,1715128301
83,la sarre,48.8002,-79.1996,8.78,64,86,3.22,CA,1715128396
84,wagar,16.1525,36.2032,26.1,41,4,4.74,SD,1715128621
85,zhanjiang,21.2815,110.3427,27.72,74,100,3.2,CN,1715128622
86,nchelenge,-9.3451,28.734,22.25,71,100,2.81,ZM,1715128373
87,manokwari,-0.8667,134.0833,28.21,76,100,0.36,ID,1715128366
88,touros,-5.1989,-35.4608,26.17,85,100,4.03,BR,1715128292
89,tierralta,8.1736,-76.0592,26.52,93,100,2.73,CO,1715128622
90,mar del plata,-38.0023,-57.5575,17.27,99,100,3.09,AR,1715128175
91,lebu,-37.6167,-73.65,7.97,75,6,1.16,CL,1715128293
92,island harbour,50.724,-1.2758,12.9,63,6,3.06,GB,1715128623
93,canatlan,24.5167,-104.7833,24.4,13,100,7.61,MX,1715128623
94,udachny,66.4167,112.4,-0.31,98,100,9.12,RU,1715128359
95,happy valley-goose bay,53.3168,-60.3315,3.17,70,100,7.72,CA,1715128386
96,cidreira,-30.1811,-50.2056,22.51,86,100,2.86,BR,1715128403
97,lazaro cardenas,17.9583,-102.2,27.18,60,97,5.87,MX,1715128176
98,ola,59.5833,151.2833,0.08,96,98,4.71,RU,1715128352
99,minapasoc,10.6989,123.349,29.53,64,16,2.99,PH,1715128624
100,kourou,5.1552,-52.6478,27.03,83,100,3.27,GF,1715128294
101,pangody,65.85,74.4859,-6.42,94,99,6.98,RU,1715128359
102,caister-on-sea,52.6481,1.7265,10.23,94,0,3.41,GB,1715128624
103,puerto natales,-51.7236,-72.4875,-1.04,88,100,1.14,CL,1715128285
104,bikenibeu village,1.3673,173.1241,29.04,78,34,6.04,KI,1715128334
105,san patricio,28.017,-97.5169,29.4,83,46,4.73,US,1715128288
106,hawaiian paradise park,19.5933,-154.9731,24.93,79,100,5.14,US,1715128300
107,dhidhdhoo,6.8833,73.1,29.53,71,100,4.57,MV,1715128310
108,nelson bay,-32.7167,152.15,20.05,81,66,0.45,AU,1715128625
109,ilulissat,69.2167,-51.1,-4.99,86,100,1.54,GL,1715128284
110,hamilton,39.1834,-84.5333,24.43,87,40,5.66,US,1715128300
111,cill airne,52.05,-9.5167,9.84,87,100,1.78,IE,1715128529
112,augusto correa,-1.0217,-46.635,24.13,99,100,0.61,BR,1715128626
113,haiku-pauwela,20.9219,-156.3051,26.01,73,40,9.26,US,1715128318
114,st. john's,47.5649,-52.7093,8.49,94,75,2.57,CA,1715128209
115,vila franca do campo,37.7167,-25.4333,18.27,99,100,3.42,PT,1715128296
116,bonny,4.4522,7.1681,26.86,85,100,3.18,NG,1715128627
117,sumenep,-7.0167,113.8667,28.77,71,4,4.23,ID,1715128627
118,gaiman,-43.2897,-65.4929,9.27,70,100,7.45,AR,1715128628
119,bhikangaon,21.8667,75.95,29.93,44,12,2.7,IN,1715128628
120,mejit,10.2753,170.8646,27.73,81,51,8.89,MH,1715128364
121,six-fours-les-plages,43.0938,5.84,14.69,73,0,3.23,FR,1715128422
122,prado,-17.3411,-39.2208,25.23,89,100,2.88,BR,1715128504
123,bamboo flat,11.7,92.7167,26.05,94,20,1.03,IN,1715128357
124,remire-montjoly,4.9167,-52.2667,27.02,89,40,3.09,GF,1715128347
125,jamestown,42.097,-79.2353,20.8,45,75,1.54,US,1715128307
126,margate,51.3813,1.3862,11.28,88,8,1.34,GB,1715128629
127,mananjary,-21.2167,48.3333,22.88,82,66,3.38,MG,1715128630
128,tura,25.5198,90.2201,25.99,61,100,1.16,IN,1715128317
129,coronel dorrego,-38.7187,-61.2873,13.48,94,100,1.57,AR,1715128630
130,aykhal,66.0,111.5,-2.19,93,99,9.72,RU,1715128313
131,kingston,17.997,-76.7936,28.53,84,20,2.57,JM,1715128384
132,hermanus,-34.4187,19.2345,13.22,87,0,2.17,ZA,1715128350
133,upington,-28.4478,21.2561,15.68,48,5,4.5,ZA,1715128631
134,las lomitas,-24.7096,-60.593,28.92,56,100,2.45,AR,1715128631
135,ilek,51.5271,53.3831,11.96,61,100,3.62,RU,1715128631
136,humaita,-7.5061,-63.0208,27.26,77,100,0.94,BR,1715128631
137,petrovsk,52.3064,45.3917,11.06,89,100,7.95,RU,1715128631
138,port saint john's,-31.6229,29.5448,22.82,49,0,3.65,ZA,1715128323
139,fale old settlement,-9.3852,-171.2468,29.41,75,86,4.65,TK,1715128302
140,changji,44.0167,87.3167,19.44,59,0,2.0,CN,1715128367
141,vilyuysk,63.7553,121.6247,2.78,85,100,4.47,RU,1715128632
142,la'ie,21.6477,-157.9253,27.98,73,31,3.58,US,1715128375
143,blackmans bay,-43.0167,147.3167,11.52,93,100,0.45,AU,1715128291
144,ashburton,-37.8626,145.0794,16.54,79,0,0.87,AU,1715128633
145,sarangani,5.4033,125.4636,28.23,78,73,5.2,PH,1715128633
146,sao sebastiao,-23.76,-45.4097,21.6,72,0,2.12,BR,1715128633
147,port lincoln,-34.7333,135.8667,17.1,70,100,5.07,AU,1715128288
148,kone,-21.0595,164.8658,27.41,44,0,5.89,NC,1715128393
149,as sulayyil,20.4607,45.5779,27.14,20,5,2.03,SA,1715128381
150,novo aripuana,-5.1206,-60.3797,24.38,98,100,1.14,BR,1715128294
151,saipan,15.1355,145.701,32.39,58,40,5.66,MP,1715128306
152,hobyo,5.3505,48.5268,28.76,77,95,4.28,SO,1715128482
153,tangalle,6.024,80.7911,25.09,89,100,2.6,LK,1715128634
154,ambon,-3.6954,128.1814,29.37,95,20,1.54,ID,1715128634
155,doctor arroyo,23.6667,-100.1833,27.68,11,100,3.85,MX,1715128634
156,east london,-33.0153,27.9116,21.77,80,100,8.44,ZA,1715128360
157,nema,57.5067,50.5011,3.24,100,100,3.45,RU,1715128635
158,mount pearl,47.5166,-52.7813,8.03,94,75,2.57,CA,1715128362
159,torres,-29.3353,-49.7269,24.37,81,100,2.09,BR,1715128635
160,thompson,55.7435,-97.8558,11.09,54,40,6.69,CA,1715128179
161,sitka,57.0531,-135.33,8.94,66,100,4.63,US,1715128329
162,dudinka,69.4058,86.1778,-14.62,100,67,1.79,RU,1715128284
163,monguno,12.6786,13.6079,30.55,34,77,4.23,NG,1715128636
164,rabo de peixe,37.8,-25.5833,17.77,99,75,2.57,PT,1715128292
165,young,-32.6833,-57.6333,20.49,99,100,2.24,UY,1715128636
166,pitea,65.3172,21.4794,-4.95,97,6,1.79,SE,1715128636
167,vila velha,-20.3297,-40.2925,24.97,88,75,1.03,BR,1715128637
168,ujae,8.9322,165.7642,28.09,79,100,8.68,MH,1715128383
169,tadine,-21.55,167.8833,24.07,61,31,6.56,NC,1715128637
170,college,64.8569,-147.8028,11.16,51,100,2.06,US,1715128068
171,yecla,38.6137,-1.1147,11.96,73,62,1.47,ES,1715128637
172,rongelap,11.1635,166.8941,27.36,77,100,9.09,MH,1715128404
173,pachino,36.7186,15.0907,16.9,83,100,2.25,IT,1715128638
174,broken hill,-31.95,141.4333,17.67,48,12,6.21,AU,1715128316
175,vorgashor,67.5833,63.95,-19.0,100,64,1.96,RU,1715128303
176,isafjordur,66.0755,-23.124,0.91,97,99,1.33,IS,1715128314
177,santo antonio do ica,-3.1022,-67.9397,25.38,91,100,1.2,BR,1715128638
178,gobabis,-22.45,18.9667,18.5,39,5,4.92,NA,1715128639
179,tazacorte,28.629,-17.9293,22.86,68,75,3.6,ES,1715128377
180,san fernando,15.0286,120.6898,30.85,49,11,3.12,PH,1715128639
181,talakan,50.3167,130.3667,19.48,27,94,5.29,RU,1715128639
182,mbaiki,3.8678,17.9892,23.92,77,99,1.14,CF,1715128640
183,alice springs,-23.7,133.8833,16.75,59,99,4.12,AU,1715128322
184,sirjan,29.452,55.6814,18.22,38,0,1.77,IR,1715128640
185,kalmeshwar,21.2333,78.9,24.79,51,42,0.38,IN,1715128640
186,inirida,3.8653,-67.9239,25.23,95,63,0.96,CO,1715128341
187,istgah-e rah ahan-e garmsar,35.2346,52.3094,19.58,30,11,3.89,IR,1715128640
188,kemecse,48.0753,21.8063,13.19,88,100,5.72,HU,1715128641
189,popondetta,-8.7537,148.2534,31.0,60,100,1.29,PG,1715128641
190,pathein,16.7833,94.7333,31.31,60,5,5.59,MM,1715128641
191,nizhneangarsk,55.7833,109.55,2.22,68,36,2.24,RU,1715128358
192,alofi,-19.0595,-169.9187,26.94,94,40,4.12,NU,1715128641
193,al kharijah,25.4514,30.5464,20.03,22,0,3.45,EG,1715128642
194,puerto baquerizo moreno,-0.9,-89.6,23.45,92,100,3.84,EC,1715128284
195,corner brook,48.9667,-57.9484,7.09,90,100,1.17,CA,1715128642
196,flying fish cove,-10.4217,105.6791,23.82,100,100,4.12,CX,1715128358
197,lihue,21.9789,-159.3672,27.58,64,40,6.17,US,1715128319
198,oodweyne,9.4092,45.064,23.65,73,12,2.39,SO,1715128642
199,west island,-12.1568,96.8225,26.99,83,40,4.12,CC,1715128288
200,whakatane,-37.9585,176.9854,17.71,67,0,2.24,NZ,1715128644
201,keflavik,64.0049,-22.5624,3.95,87,40,4.63,IS,1715128296
202,wynyard,-41.0,145.7167,14.81,62,100,4.07,AU,1715128495
203,tari,12.4086,4.4914,30.43,48,100,2.25,NG,1715128645
204,codrington,-38.2667,141.9667,15.72,68,8,3.43,AU,1715128373
205,dunedin,-45.8742,170.5036,13.78,58,34,2.24,NZ,1715128119
206,olinda,-8.0089,-34.8553,25.85,94,75,2.57,BR,1715128517
207,san antonio de pale,-1.4014,5.6325,27.39,83,100,4.74,GQ,1715128330
208,petropavlovsk-kamchatsky,53.0452,158.6483,1.33,78,75,3.58,RU,1715128302
209,likasi,-10.9814,26.7333,16.77,92,97,1.69,CD,1715128646
210,minas de marcona,-15.2119,-75.1103,14.66,90,98,8.61,PE,1715128308
211,gamboru,12.3707,14.2173,31.67,29,99,3.63,NG,1715128646
212,naze,28.3667,129.4833,21.51,54,36,3.01,JP,1715128318
213,agaro,7.85,36.65,17.61,80,85,1.34,ET,1715128646
214,petrovsk-zabaykal'skiy,51.273,108.843,8.96,46,2,3.27,RU,1715128647
215,george town,5.4112,100.3354,27.96,83,20,1.54,MY,1715128647
216,kailua-kona,19.6406,-155.9956,26.98,70,100,4.63,US,1715128354
217,bhola,22.6833,90.65,27.13,79,100,0.82,BD,1715128647
218,cabedelo,-6.9811,-34.8339,26.37,83,98,4.1,BR,1715128354
219,papatowai,-46.5619,169.4708,6.3,95,100,5.49,NZ,1715128326
220,lyndon,38.2567,-85.6016,26.78,69,40,8.23,US,1715128648
221,puerto cabezas,14.0351,-83.3888,27.4,83,100,2.65,NI,1715128489
222,port douglas,-16.4833,145.4667,25.12,85,36,6.19,AU,1715128648
223,loen,7.7601,168.2307,28.07,84,44,8.62,MH,1715128648
224,bandarbeyla,9.4942,50.8122,28.36,77,64,3.07,SO,1715128290
225,port alfred,-33.5906,26.891,18.99,94,99,2.24,ZA,1715128382
226,antalaha,-14.9003,50.2788,23.56,89,96,4.9,MG,1715128384
227,tazovsky,67.4667,78.7,-10.12,93,90,4.94,RU,1715128298
228,morondava,-20.2833,44.2833,22.44,64,0,4.35,MG,1715128649
229,michigan city,41.7075,-86.895,23.93,88,40,5.36,US,1715128649
230,san pedro pochutla,15.7333,-96.4667,29.84,69,100,4.37,MX,1715128317
231,kaseda-shirakame,31.4167,130.3167,18.7,68,0,5.32,JP,1715128649
232,haimen,23.1935,116.6142,23.94,82,100,2.88,CN,1715128650
233,farim,12.4839,-15.2217,24.66,66,0,2.05,GW,1715128650
234,san luis de la loma,17.2706,-100.8939,27.14,62,61,5.04,MX,1715128650
235,namsos,64.4662,11.4957,8.03,93,100,2.06,NO,1715128650
236,kayar,14.9192,-17.1211,23.53,85,0,4.0,SN,1715128651
237,lospalos,-8.5186,127.0025,23.85,85,98,2.35,TL,1715128556
238,ust'-barguzin,53.45,108.9833,4.45,68,0,1.68,RU,1715128651
239,winnemucca,40.973,-117.7357,9.3,26,90,9.47,US,1715128651
240,kiunga,-6.1219,141.2906,24.37,99,100,1.28,PG,1715128361
241,wailua homesteads,22.0669,-159.378,27.24,70,40,6.17,US,1715128207
242,usinsk,65.9939,57.5281,-4.4,90,94,6.26,RU,1715128400
243,caete,-19.88,-43.6697,21.57,94,7,1.32,BR,1715128652
244,nagqu,31.5,92.0,2.76,52,98,3.74,CN,1715128652
245,nadym,65.5333,72.5167,-5.02,93,100,7.36,RU,1715128329
246,nikolayevsk-on-amure,53.1406,140.73,5.12,49,1,1.79,RU,1715128351
247,hammerfest,70.6634,23.6821,-1.75,64,4,3.09,NO,1715128361
248,floro,61.5996,5.0328,10.13,93,100,3.09,NO,1715128654
249,yajiwa,11.3839,12.7236,32.09,30,100,2.97,NG,1715128654
250,ulsteinvik,62.3432,5.8487,9.31,94,99,2.38,NO,1715128536
251,akureyri,65.6835,-18.0878,3.96,75,40,4.12,IS,1715128405
252,antonio enes,-16.2325,39.9086,24.88,74,0,3.11,MZ,1715128654
253,mariinsk,56.2139,87.7472,11.49,57,88,3.46,RU,1715128655
254,praia da vitoria,38.7333,-27.0667,19.14,88,75,7.89,PT,1715128371
255,enewetak,11.3474,162.3373,27.88,79,56,9.1,MH,1715128316
256,pandan,14.0453,124.1694,29.93,65,9,3.43,PH,1715128655
257,shingu,33.7333,135.9833,21.89,50,0,0.75,JP,1715128405
258,sampacho,-33.3839,-64.7221,12.63,95,0,2.18,AR,1715128656
259,polohy,47.4844,36.2536,13.36,82,99,3.77,UA,1715128657
260,barre,44.197,-72.5021,16.86,49,0,1.54,US,1715128657
261,vaasa,63.096,21.6158,-0.03,74,4,2.24,FI,1715128657
262,saint-joseph,-21.3667,55.6167,22.21,70,27,7.4,RE,1715128657
263,lensk,60.7253,114.9278,3.75,62,98,6.35,RU,1715128657
264,sankt veit an der glan,46.7681,14.3603,14.45,87,75,0.51,AT,1715128658
265,ancud,-41.8697,-73.8203,7.07,72,38,2.69,CL,1715128376
266,mbekenyera,-10.0,38.9833,19.54,98,11,1.29,TZ,1715128658
267,berdigestyakh,62.0989,126.6992,2.52,83,100,4.49,RU,1715128290
268,menaka,15.9182,2.4022,30.2,48,95,7.28,ML,1715128659
269,atlantic,39.4668,-74.6663,21.1,81,20,2.57,US,1715128659
270,san andres,12.5847,-81.7006,30.01,79,20,4.12,CO,1715128659
271,hassi messaoud,31.6804,6.0729,23.92,38,40,5.66,DZ,1715128659
272,utrik,11.2278,169.8474,27.34,78,19,9.35,MH,1715128342
273,stephenville,32.2207,-98.2023,30.0,39,0,2.06,US,1715128402
274,dolbeau-mistassini,48.8763,-72.212,8.36,63,100,3.43,CA,1715128660
275,iskateley,67.6803,53.1512,-9.38,97,98,4.26,RU,1715128320
276,mossel bay,-34.1831,22.146,15.96,87,100,2.91,ZA,1715128398
277,ghogha,21.6833,72.2833,29.64,53,0,1.87,IN,1715128660
278,conde,-7.2597,-34.9075,25.7,94,40,2.57,BR,1715128661
279,axim,4.8699,-2.2405,27.29,83,93,1.7,GH,1715128661
280,junction city,39.0286,-96.8314,25.92,17,0,2.06,US,1715128661
281,kristiansund,63.1115,7.732,8.03,93,100,4.63,NO,1715128334
282,nanning,22.8167,108.3167,25.25,87,100,3.53,CN,1715128661
283,sao joao da barra,-21.6403,-41.0511,25.05,90,1,5.27,BR,1715128569
284,buta,2.7858,24.73,24.06,77,52,0.89,CD,1715128662
285,anadyr,64.75,177.4833,-6.72,62,75,3.0,RU,1715128321
286,issa,53.8705,44.8578,4.52,93,100,6.81,RU,1715128662
287,vrangel',42.7297,133.0839,7.57,74,0,4.52,RU,1715128662
288,kayangel,8.0823,134.7173,28.39,74,27,3.85,PW,1715128663
289,xining,36.6167,101.7667,14.33,40,0,0.59,CN,1715128663
290,chestertown,39.209,-76.0666,22.35,85,100,2.2,US,1715128663
291,kuqa,41.7278,82.9364,22.26,26,0,3.24,CN,1715128663
292,gurghiu,46.7667,24.85,12.14,92,100,2.29,RO,1715128663
293,long beach,33.767,-118.1892,24.86,69,0,6.17,US,1715128099
294,nova sintra,14.8667,-24.7167,24.04,75,3,5.93,CV,1715128332
295,bodo,67.28,14.405,5.02,56,0,12.35,NO,1715128485
296,jasidih,24.5167,86.65,25.92,65,0,5.3,IN,1715128664
297,ta`u,-14.2336,-169.5144,29.08,80,96,4.95,AS,1715128409
298,zouerate,22.7187,-12.4521,30.54,9,0,1.9,MR,1715128664
299,magdagachi,53.45,125.8,20.11,27,100,5.24,RU,1715128665
300,itoman,26.1247,127.6694,26.43,72,40,3.09,JP,1715128665
301,timbuktu,16.7735,-3.0074,33.4,33,33,3.22,ML,1715128665
302,new norfolk,-42.7826,147.0587,12.18,86,100,0.53,AU,1715128343
303,christchurch,-43.5333,172.6333,14.07,67,11,2.06,NZ,1715128315
304,guerrero negro,27.9769,-114.0611,17.62,65,0,9.17,MX,1715128532
305,newman,37.3138,-121.0208,23.47,34,37,8.05,US,1715128563
306,tyre,33.2733,35.1939,17.34,70,0,1.31,LB,1715128666
307,sao vicente,-23.9631,-46.3919,31.26,26,5,1.33,BR,1715128336
308,magadan,59.5667,150.8,-0.26,97,99,3.78,RU,1715128299
309,mwandiga,-4.83,29.6581,22.27,84,93,3.16,TZ,1715128666
310,klyuchi,52.2667,79.1667,11.93,78,4,4.55,RU,1715128314
311,saudarkrokur,65.7461,-19.6394,3.21,77,54,5.66,IS,1715128667
312,qaqortoq,60.7167,-46.0333,-0.3,60,97,1.03,GL,1715128303
313,beatrice,40.2681,-96.747,22.05,28,0,4.12,US,1715128667
314,bandar abbas,27.1865,56.2808,25.99,61,0,3.09,IR,1715128667
315,sona,45.4388,10.8255,14.75,93,75,1.03,IT,1715128306
316,carnarvon,-24.8667,113.6333,21.68,39,4,4.47,AU,1715128311
317,cooma,-36.2333,149.1333,11.02,58,36,1.61,AU,1715128516
318,corvallis,44.5646,-123.262,16.37,66,75,3.09,US,1715128438
319,mount darwin,-16.7725,31.5838,11.75,78,0,1.32,ZW,1715128668
320,orapa,-21.2833,25.3667,19.11,38,0,4.78,BW,1715128668
321,bellaria-igea marina,44.1421,12.47,14.95,88,40,1.54,IT,1715128668
322,rehoboth,-23.3167,17.0833,16.71,37,21,1.52,NA,1715128668
323,colares,38.7992,-9.4469,19.55,62,100,1.34,PT,1715128394
324,katsuura,35.1333,140.3,20.01,73,100,6.25,JP,1715128291
325,wenshui,28.4506,106.5267,17.46,76,100,1.2,CN,1715128669
326,posadas,-27.3671,-55.8961,22.94,70,99,3.28,AR,1715128669
327,moyynkum,44.2914,72.9469,17.58,55,91,4.64,KZ,1715128669
328,harstad,68.799,16.5293,1.75,65,0,13.86,NO,1715128670
329,porto belo,-27.1578,-48.5531,25.54,99,100,2.27,BR,1715128670
330,broome,42.2506,-75.833,18.72,68,100,1.59,US,1715128387
331,san jose de jachal,-30.2406,-68.7469,17.5,8,0,10.91,AR,1715128670
332,dera ismail khan,31.8327,70.9024,30.43,17,76,0.57,PK,1715128670
333,mugia,43.1041,-9.2179,12.73,75,100,6.32,ES,1715128671
334,chulym,55.0997,80.9572,9.05,85,17,4.59,RU,1715128671
335,mongo,12.1844,18.693,32.06,9,93,2.12,TD,1715128671
336,crucecita,-28.95,-58.9833,26.72,68,100,3.87,AR,1715128671
337,zlatni pyasatsi,43.285,28.0418,16.59,80,100,2.06,BG,1715128671
338,hagere maryam,5.6333,38.2333,14.86,99,76,1.28,ET,1715128369
339,esmeraldas,-19.7625,-44.3139,22.48,83,0,2.62,BR,1715128362
340,sejenane,37.0572,9.2381,16.53,93,100,3.73,TN,1715128672
341,petrozavodsk,61.7849,34.3469,-2.3,64,0,6.0,RU,1715128672
342,kharan,28.5833,65.4167,26.92,19,0,1.76,PK,1715128672
343,betioky,-23.7167,44.3833,20.56,70,0,3.96,MG,1715128673
344,palikir - national government center,6.9248,158.1611,26.47,94,100,4.63,FM,1715128322
345,chonchi,-42.6128,-73.8092,4.51,91,81,1.1,CL,1715128370
346,novyy urengoy,66.0833,76.6333,-5.11,95,99,7.24,RU,1715128673
347,itupiranga,-5.1347,-49.3267,26.18,86,100,0.97,BR,1715128673
348,sault ste. marie,46.5168,-84.3333,16.16,41,0,4.63,CA,1715128457
349,isernia,41.6002,14.2382,11.6,94,87,0.65,IT,1715128674
350,tegina,10.0706,6.1906,26.58,72,100,0.71,NG,1715128674
351,mahdishahr,35.7108,53.3556,11.73,40,1,3.44,IR,1715128674
352,praya,14.9215,-23.5087,24.3,60,20,4.12,CV,1715128674
353,kosh-agach,50.0,88.6667,10.17,33,100,2.24,RU,1715128675
354,chegdomyn,51.1167,133.0167,17.29,29,87,2.84,RU,1715128534
355,maicao,11.3832,-72.2432,28.85,74,100,5.01,CO,1715128457
356,pariaman,-0.619,100.12,26.03,82,100,2.01,ID,1715128287
357,tolanaro,-25.0319,46.9987,23.04,88,40,3.09,MG,1715128319
358,esens,53.6487,7.6127,11.12,92,57,2.0,DE,1715128675
359,quellon,-43.1167,-73.6167,5.59,82,94,2.26,CL,1715128411
360,sur,22.5667,59.5289,31.88,57,0,3.85,OM,1715128676
361,gadzhiyevo,69.2551,33.3362,-4.36,78,100,3.57,RU,1715128337
362,jining,35.405,116.5814,24.2,21,0,2.3,CN,1715128676
363,luena,-11.7833,19.9167,21.1,73,43,3.09,AO,1715128676
364,afaahiti,-17.75,-149.2833,28.93,78,97,6.8,PF,1715128295
365,shekhupura,31.7131,73.9783,25.03,21,0,1.72,PK,1715128677
366,virginia,37.5481,-77.4467,22.99,88,0,0.0,US,1715128677
367,abra pampa,-22.7205,-65.697,11.5,15,2,2.27,AR,1715128677
368,mirpur sakro,24.5474,67.6277,26.98,80,0,6.03,PK,1715128677
369,piracuruca,-3.9281,-41.7092,24.73,84,64,1.92,BR,1715128678
370,aasiaat,68.7098,-52.8699,-5.11,96,100,3.7,GL,1715128287
371,cockburn town,21.4612,-71.1419,25.22,78,99,8.04,TC,1715128506
372,seminole,28.7086,-81.2081,29.2,67,20,5.66,US,1715128678
373,childress,34.4264,-100.204,29.14,16,0,8.75,US,1715128678
374,robertsport,6.7533,-11.3686,27.88,84,69,3.81,LR,1715128678
375,riosucio,5.4216,-75.7032,19.18,99,100,1.09,CO,1715128679
376,bazarnyy karabulak,52.2683,46.4144,11.73,84,100,5.58,RU,1715128679
377,cotonou,6.3654,2.4183,28.91,80,100,4.04,BJ,1715128330
378,sao miguel do araguaia,-13.275,-50.1628,25.0,58,0,2.19,BR,1715128679
379,muisne,0.6,-80.0333,25.81,83,92,4.94,EC,1715128679
380,noumea,-22.2763,166.4572,25.56,99,33,6.19,NC,1715128253
381,nouadhibou,20.931,-17.0347,18.99,82,99,5.14,MR,1715128306
382,kingaroy,-26.5333,151.8333,17.95,74,82,5.54,AU,1715128680
383,ketchikan,55.3422,-131.6461,11.26,58,100,7.72,US,1715128543
384,hanceville,34.0607,-86.7675,25.09,94,27,2.28,US,1715128674
385,grand-bassam,5.2118,-3.7388,25.98,83,100,2.32,CI,1715128680
386,parun,35.4207,70.9221,3.11,42,98,6.57,AF,1715128681
387,smithers,54.7804,-127.1743,12.18,28,40,4.12,CA,1715128494
388,eyl,7.9803,49.8164,28.39,78,11,2.26,SO,1715128509
389,antsiranana,-12.2787,49.2917,24.27,83,53,7.62,MG,1715128682
390,hilo,19.7297,-155.09,27.38,82,100,5.14,US,1715128288
391,laascaanood,8.4774,47.3597,25.21,80,12,5.95,SO,1715128682
392,novoagansk,61.9449,76.6625,0.55,90,100,6.18,RU,1715128682
393,kolobrzeg,54.1757,15.5834,7.76,75,52,4.06,PL,1715128558
394,santa cruz,-17.8,-63.1667,26.7,83,20,6.17,BO,1715128683
395,uturoa,-16.7333,-151.4333,27.85,75,95,7.81,PF,1715128297
396,bel ombre,-4.6167,55.4167,26.91,89,40,1.03,SC,1715128683
397,debre werk',10.6667,38.1667,17.72,56,95,1.09,ET,1715128563
398,ponta delgada,37.7333,-25.6667,18.44,94,75,2.57,PT,1715128419
399,bhamo,24.2667,97.2333,27.67,49,58,0.53,MM,1715128684
400,atar,20.5169,-13.0499,30.37,12,0,0.75,MR,1715128684
401,marquette,46.5333,-87.6335,13.69,83,100,1.6,US,1715128684
402,colgong,25.2667,87.2167,27.07,56,1,3.0,IN,1715128685
403,coquimbo,-29.9533,-71.3436,13.85,100,100,6.69,CL,1715128350
404,taltal,-25.4,-70.4833,17.38,70,100,1.71,CL,1715128391
405,necochea,-38.5473,-58.7368,15.31,96,100,4.67,AR,1715128685
406,galesong,-5.3166,119.3661,28.01,78,8,1.8,ID,1715128659
407,porto novo,6.4965,2.6036,28.08,83,100,2.35,BJ,1715128536
408,carutapera,-1.195,-46.02,25.29,94,99,2.49,BR,1715128501
409,quixeramobim,-5.1992,-39.2928,22.66,91,97,1.03,BR,1715128686
410,turpan,42.9333,89.1667,28.44,27,100,1.32,CN,1715128487
411,laguna,38.421,-121.4238,24.99,32,0,6.17,US,1715128327
412,saldanha,-33.0117,17.9442,14.03,87,0,3.65,ZA,1715128416
413,sittwe,20.15,92.9,28.13,68,100,2.74,MM,1715128408
414,theniet el had,35.8711,2.0281,8.13,90,4,1.42,DZ,1715128686
415,kayes,14.0,-11.0,36.53,14,99,0.75,ML,1715128687
416,fasa,28.9383,53.6482,13.58,88,0,2.06,IR,1715128370
417,tulun,54.5611,100.5792,10.01,62,100,5.9,RU,1715128687
418,batalha,-9.6778,-37.1247,23.31,95,99,1.22,BR,1715128688
419,mufumbwe,-13.6833,24.8,18.69,71,84,1.78,ZM,1715128688
420,sikasso,10.9167,-7.0,28.26,58,91,1.81,ML,1715128688
421,vieste,41.8825,16.175,16.99,78,0,2.25,IT,1715128688
422,merizo village,13.2658,144.6691,29.85,82,100,5.17,GU,1715128313
423,birzebbuga,35.8258,14.5269,18.42,100,20,4.63,MT,1715128689
424,lintong,34.378,109.2089,20.38,48,100,2.06,CN,1715128689
425,severnoye,56.3491,78.3619,7.21,96,49,3.13,RU,1715128689
426,serra san bruno,38.5754,16.3244,11.81,61,99,0.89,IT,1715128689
427,salalah,17.0151,54.0924,30.05,79,75,1.54,OM,1715128409
428,az zawr,29.4425,48.2747,28.86,47,1,7.91,KW,1715128690
429,tabou,4.423,-7.3528,27.68,82,100,3.27,CI,1715128690
430,vilyuchinsk,52.9306,158.4028,2.15,84,100,3.54,RU,1715128332
431,rio grande,-32.035,-52.0986,22.06,94,97,2.93,BR,1715128309
432,clarence town,-32.5833,151.7833,19.97,73,98,0.76,AU,1715128691
433,hiratacho,35.4333,132.8167,13.98,67,75,8.75,JP,1715128692
434,tralee,52.2704,-9.7026,9.22,90,100,1.43,IE,1715128533
435,khanbari,27.3747,87.2039,20.14,79,100,1.16,NP,1715128692
436,biankouma,7.7391,-7.6138,21.35,99,93,1.08,CI,1715128692
437,saint-philippe,-21.3585,55.7679,22.77,73,50,7.51,RE,1715128344
438,rexburg,43.826,-111.7897,9.19,44,100,2.57,US,1715128693
439,puerto deseado,-47.7503,-65.8938,4.24,92,100,6.02,AR,1715128693
440,juye,35.3947,116.0883,24.51,21,0,2.17,CN,1715128693
441,saint-pierre,-21.3393,55.4781,22.82,56,0,5.66,RE,1715128304
442,gwio kura,12.6753,11.0682,29.92,14,44,1.48,NG,1715128694
443,zeya,53.75,127.2667,16.94,35,100,5.92,RU,1715128501
444,nuuk,64.1835,-51.7216,0.34,74,15,4.12,GL,1715128318
445,karratha,-20.7377,116.8463,27.36,49,3,2.07,AU,1715128417
446,peremyshlyany,49.6652,24.5585,4.98,84,100,2.65,UA,1715128694
447,suzhou,31.3114,120.6181,20.27,51,1,4.28,CN,1715128695
448,williams lake,52.1415,-122.1445,13.92,32,75,6.69,CA,1715128569
449,letterkenny,54.95,-7.7333,7.87,95,100,1.15,IE,1715128695
450,boda,4.3189,17.4695,22.99,84,65,0.53,CF,1715128695
451,monkey bay,-14.0728,34.9201,23.08,71,55,6.1,MW,1715128695
452,dos de mayo,-27.0228,-54.6867,24.82,69,100,3.38,AR,1715128696
453,lubang,13.8584,120.124,28.43,78,67,6.98,PH,1715128696
454,howard springs,-12.497,131.047,29.34,76,6,3.98,AU,1715128696
455,port blair,11.6667,92.75,26.02,94,20,1.03,IN,1715128351
456,quesnel,52.9999,-122.5029,14.28,24,40,4.63,CA,1715128696
457,tokmok,42.8417,75.3016,17.41,58,58,1.68,KG,1715128697
458,taoudenni,22.6783,-3.9836,32.03,6,0,3.57,ML,1715128353
459,dankov,53.2515,39.1555,1.4,84,11,6.41,RU,1715128697
460,shawano,44.7822,-88.609,12.5,97,100,0.67,US,1715128697
461,isangel,-19.55,169.2667,26.06,73,40,4.12,VU,1715128422
462,lawas,13.764,121.0566,31.42,58,100,3.94,PH,1715128698
463,maintirano,-18.0667,44.0167,23.47,68,0,2.74,MG,1715128310
464,callao,-12.0667,-77.15,23.18,82,20,5.66,PE,1715128698
465,simanggang,1.2472,111.4528,26.99,94,40,1.03,MY,1715128518
466,maracaibo,10.6317,-71.6406,28.62,80,79,4.75,VE,1715128698
467,polyarnyy,69.1989,33.4478,-5.33,79,100,3.03,RU,1715128419
468,khandyga,62.6667,135.6,6.0,71,100,2.12,RU,1715128302
469,newbiggin-by-the-sea,55.1853,-1.5147,9.44,96,100,1.54,GB,1715128699
470,cam pha mines,21.0167,107.3,26.96,73,99,1.01,VN,1715128699
471,phan thiet,10.9333,108.1,29.52,69,9,2.42,VN,1715128699
472,yurty,56.0498,97.6348,9.27,53,100,4.63,RU,1715128700
473,nuku'alofa,-21.1333,-175.2,27.19,83,75,2.57,TO,1715128700
474,dayton,39.7589,-84.1916,23.82,87,75,5.66,US,1715128700
475,maxixe,-23.8597,35.3472,20.93,76,3,1.37,MZ,1715128700
476,micheweni,-4.9667,39.8333,25.91,86,79,5.9,TZ,1715128486
477,susuman,62.7833,148.1667,0.55,75,79,2.24,RU,1715128388
478,mechanicsville,37.6088,-77.3733,23.37,87,0,0.0,US,1715128415
479,taulaga,-11.0553,-171.0883,29.57,75,99,2.68,AS,1715128701
480,lazarevskoye,43.9061,39.3331,12.51,86,27,1.03,RU,1715128701
481,fort mcmurray,56.7268,-111.381,10.77,93,100,3.09,CA,1715128550
482,dili,-8.5586,125.5736,29.14,72,3,2.59,TL,1715128701
483,punta cardon,11.6581,-70.215,27.49,84,100,11.2,VE,1715128702
484,lev tolstoy,53.2134,39.446,1.27,84,16,6.97,RU,1715128702
485,prince rupert,54.3161,-130.3201,10.05,66,40,11.83,CA,1715128488
486,colonia,50.9333,6.95,13.92,89,75,0.51,DE,1715128239
487,nantucket,41.2835,-70.0995,12.23,96,36,5.85,US,1715128360
488,al jahra',29.3375,47.6581,28.64,22,3,6.81,KW,1715128703
489,tannum sands,-23.9504,151.3693,25.97,64,27,6.17,AU,1715128625
490,isiro,2.7739,27.616,21.8,76,72,1.23,CD,1715128703
491,hotan,37.0997,79.9269,21.41,25,0,1.89,CN,1715128408
492,parry sound,45.3501,-80.033,17.03,42,100,2.14,CA,1715128703
493,siwa oasis,29.2041,25.5195,20.55,33,2,3.62,EG,1715128703
494,baoshan,46.5586,131.4244,18.28,31,65,1.76,CN,1715128704
495,guelmim,28.987,-10.0574,17.19,82,100,1.54,MA,1715128704
496,north battleford,52.7834,-108.2847,14.05,67,100,5.66,CA,1715128704
497,ar ruways,24.1103,52.7306,29.88,58,1,2.2,AE,1715128704
498,pontianak,-0.0333,109.3333,25.99,100,75,2.57,ID,1715128513
499,herat,34.5,62.0,22.38,35,6,3.22,AF,1715128705
500,bafra,41.5678,35.9069,11.01,82,0,1.76,TR,1715128705
501,toguchin,55.2353,84.3858,10.65,74,12,4.07,RU,1715128370
502,villanueva,15.3167,-88.0,29.55,79,20,6.17,HN,1715128705
503,fort st. john,56.2499,-120.8529,14.94,18,20,8.23,CA,1715128397
504,yanjiang,30.1211,104.6481,22.63,69,100,2.92,CN,1715128706
505,umea,63.8284,20.2597,-1.04,59,0,1.54,SE,1715128706
506,bodden town,19.2833,-81.25,29.0,85,20,2.57,KY,1715128706
507,forster,-32.1667,152.5167,19.1,81,35,1.58,AU,1715128706
508,banda aceh,5.5577,95.3222,28.42,77,100,0.99,ID,1715128373
509,salzhemmendorf,52.067,9.5872,9.55,91,40,0.96,DE,1715128707
510,suva,-18.1416,178.4415,26.71,78,75,3.6,FJ,1715128707
511,danghara,38.0958,69.34,18.12,51,79,3.72,TJ,1715128707
512,balad,34.0164,44.1453,20.97,31,2,2.76,IQ,1715128707
513,kamwenge,0.1866,30.4539,18.26,98,100,0.95,UG,1715128707
514,desaguadero,-16.5656,-69.0417,9.38,60,100,1.73,PE,1715128708
515,revda,56.801,59.9303,6.59,83,99,4.49,RU,1715128306
516,sola,-13.8833,167.55,29.37,66,75,2.57,VU,1715128366
517,cochirleanca,45.2167,27.0333,15.49,81,99,8.89,RO,1715128708
518,kampene,-3.6,26.6667,21.44,96,80,1.0,CD,1715128708
519,hangzhou,30.2937,120.1614,20.95,60,3,3.42,CN,1715128708
520,aldinga beach,-35.2793,138.4604,21.26,46,53,3.68,AU,1715128709
521,burang,30.25,81.1667,1.55,58,0,0.18,CN,1715128709
522,yuzhno-kurilsk,44.0306,145.8556,2.99,95,100,10.33,RU,1715128364
523,trat,12.5,102.5,26.11,71,100,0.35,TH,1715128709
524,kangasala,61.4638,24.076,-1.77,76,0,2.85,FI,1715128709
525,ust'-kulom,61.6864,53.6902,-1.43,73,100,3.82,RU,1715128710
526,nasir,15.5894,32.5634,29.24,11,19,6.14,SD,1715128710
527,palangkaraya,-2.2,113.8333,26.97,92,43,0.8,ID,1715128710
528,vorkuta,67.5,64.0,-18.83,100,62,2.24,RU,1715128403
529,steinbach,50.1667,8.5667,12.01,88,0,4.63,DE,1715128711
530,senj,44.9894,14.9058,14.37,91,82,1.61,HR,1715128711
531,alta,69.9689,23.2717,-3.41,68,6,1.03,NO,1715128505
532,cuyamel,15.6667,-88.2,30.09,90,12,2.03,HN,1715128711
533,pingliang,35.5392,106.6861,18.03,49,100,2.88,CN,1715128711
534,toamasina,-18.1667,49.3833,22.0,94,75,0.51,MG,1715128712
535,altay,47.8667,88.1167,15.12,55,0,0.82,CN,1715128712
536,luderitz,-26.6481,15.1594,16.22,88,0,8.15,NA,1715128289
537,bom jesus da lapa,-13.255,-43.4181,24.55,54,5,1.96,BR,1715128712
538,burela de cabo,43.65,-7.4,13.43,94,98,4.16,ES,1715128713
539,cannonvale,-20.2833,148.7,24.21,69,0,8.5,AU,1715128427
540,tsiombe,-25.3,45.4833,19.53,91,0,2.69,MG,1715128316
541,kigorobya,1.6162,31.3089,19.94,93,100,1.63,UG,1715128713
542,longboat key,27.4125,-82.659,28.0,58,0,3.09,US,1715128713
543,portland,45.5234,-122.6762,16.66,58,40,3.09,US,1715128001
544,cooper's town,26.8667,-77.5167,24.51,74,0,4.62,BS,1715128714
545,alvorada,-12.48,-49.1247,24.75,52,9,1.45,BR,1715128714
546,springfield,37.2153,-93.2982,23.92,41,0,3.09,US,1715128714
547,pampierstad,-27.7832,24.6877,16.42,31,0,3.84,ZA,1715128715
548,lethem,3.3803,-59.7968,25.23,88,100,0.96,GY,1715128715
549,pitimbu,-7.4706,-34.8086,26.33,80,95,3.81,BR,1715128715
550,cilaos,-21.1336,55.4719,15.3,86,24,2.78,RE,1715128715
551,safi,32.1667,-8.8333,17.49,61,46,2.68,MA,1715128716
552,belsand,26.45,85.4,26.4,60,0,4.63,IN,1715128716
553,mount gambier,-37.8333,140.7667,15.61,61,1,2.99,AU,1715128389
554,emerald,-23.5333,148.1667,23.52,58,5,5.53,AU,1715128383
555,rabaul,-4.1967,152.1721,27.94,80,100,0.77,PG,1715128717
556,motueka,-41.1333,173.0167,13.39,62,3,2.67,NZ,1715128717
557,alo,7.4178,6.7371,26.96,78,100,1.31,NG,1715128717
558,port-vila,-17.7338,168.3219,26.78,74,40,4.63,VU,1715128503
559,brak,27.5496,14.2714,29.26,16,5,8.82,LY,1715128490
560,letlhakane,-21.4167,25.5833,18.45,38,0,4.73,BW,1715128718
561,yasuj,30.6682,51.588,12.75,71,20,0.0,IR,1715128718
562,fort bragg,35.139,-79.006,27.85,70,0,3.09,US,1715128501
563,cascais,38.6979,-9.4215,19.64,61,100,1.79,PT,1715128718
564,egilsstadir,65.2653,-14.3948,5.95,70,100,7.2,IS,1715128522
565,manismata,-2.4667,111.0333,26.94,88,100,1.37,ID,1715128718
566,nyaungdon,17.0333,95.65,30.92,59,1,2.94,MM,1715128719
567,nasaud,47.2833,24.4,13.13,87,100,2.27,RO,1715128719
568,khovd,48.0056,91.6419,13.57,46,100,0.6,MN,1715128719
569,kirensk,57.7853,108.1119,6.09,55,22,2.24,RU,1715128427
570,la passe,45.5549,-0.8967,13.32,90,0,3.35,FR,1715128380
571,acarau,-2.8856,-40.12,25.89,90,93,4.64,BR,1715128338
572,pasni,25.2631,63.471,27.38,76,0,3.89,PK,1715128559
573,kyzyl,51.7,94.45,10.57,46,100,1.79,RU,1715128720
574,coari,-4.085,-63.1414,24.54,97,91,1.59,BR,1715128720
575,gandajika,-6.75,23.95,21.46,74,73,1.36,CD,1715128720
576,sinabang,2.4803,96.3801,27.89,79,99,0.11,ID,1715128537
577,south hedland,-20.4089,118.5983,26.96,44,0,4.12,AU,1715128721
578,natal,-5.795,-35.2094,26.36,94,20,2.06,BR,1715128721
579,lerwick,60.1545,-1.1494,5.0,81,100,2.96,GB,1715128426
580,mayya,61.7333,130.2811,7.62,62,100,3.41,RU,1715128722
581,lamu,-2.2717,40.902,26.12,86,82,6.02,KE,1715128355
582,hun,29.1268,15.9477,26.3,16,37,10.13,LY,1715128722
583,senillosa,-39.0,-68.4167,10.88,37,79,10.36,AR,1715128723
584,houlton,46.1262,-67.8403,14.23,35,100,0.0,US,1715128723
585,camayenne,9.535,-13.6878,29.05,79,20,3.09,GN,1715128723
586,coahuayana de hidalgo,18.7,-103.6583,24.66,64,100,1.26,MX,1715128339
587,kurtamysh,54.9103,64.4319,6.98,58,99,1.79,RU,1715128724
588,angra do heroismo,38.65,-27.2167,19.34,95,75,3.13,PT,1715128724
589,puerto penasco,31.3167,-113.5333,23.28,57,0,3.13,MX,1715128724
590,champerico,14.3,-91.9167,32.3,70,37,5.94,GT,1715128724
591,choibalsan,48.0667,114.5,11.85,37,84,11.39,MN,1715128724
592,the bottom,17.6259,-63.2492,24.31,81,0,5.51,BQ,1715128725
593,coyhaique,-45.5752,-72.0662,-0.03,93,40,2.06,CL,1715128310
594,naxos,37.1056,25.3764,19.06,61,8,1.79,GR,1715128725
595,chincha alta,-13.4099,-76.1323,19.33,92,84,1.35,PE,1715128725
596,sakado,35.9569,139.3889,22.18,58,98,3.78,JP,1715128725
597,svetlyy,54.675,20.1347,5.2,85,0,2.27,RU,1715128726
598,bayanhongor,46.7167,100.1167,10.36,52,100,1.03,MN,1715128528
